{"features": [{"properties": {"name": "Royal Karaoke", "Address": "85 Nguyễn Khang, Yên Hoà"}, "type": "Feature", "geometry": {"coordinates": [105.8016292, 21.0187769], "type": "Point"}}, {"properties": {"name": "Dragon Karaoke", "Address": "12 Nguyễn Khang, Yên Hoà"}, "type": "Feature", "geometry": {"coordinates": [105.8011692, 21.0196664], "type": "Point"}}, {"properties": {"name": "Grand Vin de Bordeaux Wine House", "Address": "Tầng 2-4, 150 Nguyễn Chánh, Khu A10 Nam Trung Yên, Phường Yên Hoà"}, "type": "Feature", "geometry": {"coordinates": [105.7868335, 21.0190346], "type": "Point"}}, {"properties": {"name": "Hải Hói Beer Hall", "Address": "Vũ Phạm Hàm, Ngã Tư Trung Yên"}, "type": "Feature", "geometry": {"coordinates": [105.7980354, 21.0176709], "type": "Point"}}, {"properties": {"name": "Lân Beer Quán 2", "Address": ""}, "type": "Feature", "geometry": {"coordinates": [105.7917896, 21.0298027], "type": "Point"}}, {"properties": {"name": "Belgian Beer Club BBC", "Address": "Số 3, Trung Yên 3, Trung Hoà"}, "type": "Feature", "geometry": {"coordinates": [105.8005185, 21.0152939], "type": "Point"}}, {"properties": {"name": "Novotel Suites Hanoi", "Address": "5 Phố Duy Tân, Dịch Vọng Hậu"}, "type": "Feature", "geometry": {"coordinates": [105.785323, 21.030436], "type": "Point"}}, {"properties": {"name": "Minh Châu Brewpup", "Address": "Mễ Trì"}, "type": "Feature", "geometry": {"coordinates": [105.7831733, 21.0139468], "type": "Point"}}, {"properties": {"name": "Karaoke Blue", "Address": "Mỹ Đình"}, "type": "Feature", "geometry": {"coordinates": [105.7787513, 21.0211029], "type": "Point"}}, {"properties": {"name": "Karaoke iSing", "Address": "116 Trần Duy Hưng, Cầu Giấy"}, "type": "Feature", "geometry": {"coordinates": [105.7996215, 21.01086639999999], "type": "Point"}}, {"properties": {"name": "Summit Karaoke", "Address": "39 Trần Thái Tông, Dịch Vọng Hậu"}, "type": "Feature", "geometry": {"coordinates": [105.7888465, 21.034172], "type": "Point"}}, {"properties": {"name": "Nam Dương Karaoke Club", "Address": "so 10 pho Thien Hien Nam, Mỹ Đình"}, "type": "Feature", "geometry": {"coordinates": [105.7778303, 21.021783], "type": "Point"}}, {"properties": {"name": "Cheers Beer", "Address": "98 Nguyễn Chí Thanh, Láng Thượng"}, "type": "Feature", "geometry": {"coordinates": [105.8057679, 21.0166246], "type": "Point"}}, {"properties": {"name": "Moonlight Karaoke Club", "Address": "54 Chùa Láng, Láng Thượng"}, "type": "Feature", "geometry": {"coordinates": [105.8074858, 21.02336339999999], "type": "Point"}}, {"properties": {"name": "Bar Phan", "Address": "Trung Hoà"}, "type": "Feature", "geometry": {"coordinates": [105.8017614, 21.0097771], "type": "Point"}}, {"properties": {"name": "Dương Cầm Karaoke", "Address": "8 Chùa Láng, Q.Đống Đa, TP.Hà Nội, Láng Thượng"}, "type": "Feature", "geometry": {"coordinates": [105.8082959, 21.0231612], "type": "Point"}}, {"properties": {"name": "Công Ty TNHH Future Generation", "Address": "Phòng 2906, Lầu 29, Tòa Nhà 34 Tầng, Khu Đô Thị Trung - Hòa Nhân Chính, Quận Cầu Giấy, Trung Hoà"}, "type": "Feature", "geometry": {"coordinates": [105.8011329, 21.0092622], "type": "Point"}}, {"properties": {"name": "Phoenix shisha", "Address": "Ngõ 86 Phố Chùa Hà, Quan Hoa"}, "type": "Feature", "geometry": {"coordinates": [105.7952688, 21.0367584], "type": "Point"}}, {"properties": {"name": "ガールズバー & カラオケ ラウンジ • クラブ NEO • Japanese Bar & Lounge", "Address": "637B Kim Mã, Ngọc Khánh"}, "type": "Feature", "geometry": {"coordinates": [105.807325, 21.029171], "type": "Point"}}, {"properties": {"name": "Paula’s Wines", "Address": "B1 Mandarin Garden (Behind Grand Plaza hotel, next to Hanoi-Amsterdam School Hanoi City"}, "type": "Feature", "geometry": {"coordinates": [105.798372, 21.005927], "type": "Point"}}, {"properties": {"name": "Karaoke Las Vegas", "Address": "1 Nguyễn Khánh Toàn, Quan Hoa"}, "type": "Feature", "geometry": {"coordinates": [105.8041844, 21.0347115], "type": "Point"}}, {"properties": {"name": "Xích Beer Club", "Address": "68 Nguyên Hồng, Láng Hạ"}, "type": "Feature", "geometry": {"coordinates": [105.8093704, 21.0156316], "type": "Point"}}, {"properties": {"name": "SBB - Special Belgian Beer", "Address": "66 Nguyên Hồng, Láng Hạ"}, "type": "Feature", "geometry": {"coordinates": [105.8094291, 21.0156435], "type": "Point"}}, {"properties": {"name": "Son Cuoc Pub", "Address": "54 Nguyễn Khánh Toàn, Quan Hoa"}, "type": "Feature", "geometry": {"coordinates": [105.8030927, 21.0362539], "type": "Point"}}, {"properties": {"name": "MyWay Beer & Cafe", "Address": "24T2 Hoàng Đạo Thúy - Cầu Giấy - Hà Nội, Hoàng Đạo Thúy, Trung Hoà"}, "type": "Feature", "geometry": {"coordinates": [105.8030749, 21.0073895], "type": "Point"}}, {"properties": {"name": "A99 Karaoke Nine Club", "Address": "N01, Thôn Phú Mỹ, Xã Mỹ Đình, Huyện Từ Liêm, Mỹ Đình"}, "type": "Feature", "geometry": {"coordinates": [105.7749205, 21.0292616], "type": "Point"}}, {"properties": {"name": "Quán Bia Hơi Hà Nội", "Address": "816 Đường Láng, Quận Đống Đa, Hà Nội, Láng Thượng"}, "type": "Feature", "geometry": {"coordinates": [105.8028191, 21.0187538], "type": "Point"}}, {"properties": {"name": "Karaoke Chip Bông", "Address": "Yên Hòa, Yên Hoà"}, "type": "Feature", "geometry": {"coordinates": [105.7921265, 21.0215487], "type": "Point"}}, {"properties": {"name": "Karaoke Nhất Long", "Address": "5 Yên Hòa, Yên Hoà"}, "type": "Feature", "geometry": {"coordinates": [105.7921063, 21.0218459], "type": "Point"}}, {"properties": {"name": "Karaoke Kenz Club", "Address": "202 Trung Kính, Yên Hoà"}, "type": "Feature", "geometry": {"coordinates": [105.7914412, 21.0213852], "type": "Point"}}, {"properties": {"name": "Bia hơi Tân Tóc Đỏ", "Address": "Yên Hoà"}, "type": "Feature", "geometry": {"coordinates": [105.791044, 21.022081], "type": "Point"}}, {"properties": {"name": "가시나 노래방", "Address": ""}, "type": "Feature", "geometry": {"coordinates": [105.7886185, 21.0195572], "type": "Point"}}, {"properties": {"name": "크라운 노래방 (Crown Karaoke)", "Address": "Yên Hoà, 베트남 Hanoi, 꺼우저이 14F Lô 10A Khu liền kề Nam Trung Yên, Nguyễn Chánh, Cầ Giấy, Hà nội"}, "type": "Feature", "geometry": {"coordinates": [105.7887989, 21.0193024], "type": "Point"}}, {"properties": {"name": "Romanee wine shop", "Address": "A1-7, Hạ Yên, Yên Hòa, Cầu Giấy"}, "type": "Feature", "geometry": {"coordinates": [105.7964889, 21.0211584], "type": "Point"}}, {"properties": {"name": "Karaoke Blue", "Address": "28, Ngõ 39 Dịch Vọng, Yên Hoà"}, "type": "Feature", "geometry": {"coordinates": [105.7975094, 21.0216631], "type": "Point"}}, {"properties": {"name": "Karaoke 182", "Address": "132 Trung Kính, Yên Hoà"}, "type": "Feature", "geometry": {"coordinates": [105.7947671, 21.0155965], "type": "Point"}}, {"properties": {"name": "Karaoke 82 Titan", "Address": "82 Trung Kính, Yên Hoà"}, "type": "Feature", "geometry": {"coordinates": [105.7949582, 21.0156234], "type": "Point"}}, {"properties": {"name": "Karaoke 72", "Address": "72 Nguyễn Khang, Yên Hoà"}, "type": "Feature", "geometry": {"coordinates": [105.7996095, 21.0221501], "type": "Point"}}, {"properties": {"name": "Hallo beer", "Address": "1150 Đường Láng, Láng Thượng"}, "type": "Feature", "geometry": {"coordinates": [105.7985969, 21.0257767], "type": "Point"}}, {"properties": {"name": "Lavender Karaoke KTV", "Address": "19 Vũ Phạm Hàm, Yên Hoà"}, "type": "Feature", "geometry": {"coordinates": [105.799804, 21.0194483], "type": "Point"}}, {"properties": {"name": "Hero Karaoke", "Address": "Yên Hoà"}, "type": "Feature", "geometry": {"coordinates": [105.7986902, 21.0169282], "type": "Point"}}, {"properties": {"name": "Cung Chon Karaoke Bar", "Address": "32, Vũ Phạm Hàm, Phường Yên Hòa, Quận Cầu Giấy, Thành Phố Hà Nội, Yên Hoà"}, "type": "Feature", "geometry": {"coordinates": [105.8002425, 21.0197011], "type": "Point"}}, {"properties": {"name": "Karaoke Night Star", "Address": "156 Chùa Láng"}, "type": "Feature", "geometry": {"coordinates": [105.800645, 21.022827], "type": "Point"}}, {"properties": {"name": "Quán Bia Lương Dung", "Address": "Phố Thành Thái, Dịch Vọng"}, "type": "Feature", "geometry": {"coordinates": [105.7913455, 21.029717], "type": "Point"}}, {"properties": {"name": "Karaoke Eva", "Address": "6 Trung Yên 1, Yên Hoà"}, "type": "Feature", "geometry": {"coordinates": [105.8007173, 21.0199105], "type": "Point"}}, {"properties": {"name": "Karaoke 361", "Address": "4 Vũ Phạm Hàm, Yên Hoà"}, "type": "Feature", "geometry": {"coordinates": [105.8007679, 21.0199834], "type": "Point"}}, {"properties": {"name": "Titan Club", "Address": "26, Lô 1A, Khu Đô Thị Mới Trung Kiên, Đường Trung Kính, Phường Trung Hòa, Quận Cầu Giấy, Thành Phố Hà Nội, Trung Hoà"}, "type": "Feature", "geometry": {"coordinates": [105.7969403, 21.0146294], "type": "Point"}}, {"properties": {"name": "SECRET GARDEN Live Music & BAR", "Address": "Mễ Trì, Landmark 72 tower"}, "type": "Feature", "geometry": {"coordinates": [105.7845439, 21.0169232], "type": "Point"}}, {"properties": {"name": "Secret Garden", "Address": "50 Phạm Hùng, Mễ Trì"}, "type": "Feature", "geometry": {"coordinates": [105.7845391, 21.0169199], "type": "Point"}}, {"properties": {"name": "Karaoke Smile Club", "Address": "368 Nguyễn Khang, Yên Hoà"}, "type": "Feature", "geometry": {"coordinates": [105.8011683, 21.0197308], "type": "Point"}}], "type": "FeatureCollection"}